[
  {
    "road_id": "tomtom_mill_ave_university_dr",
    "label": "Mill Ave / University Dr",
    "lat": 33.4192,
    "lng": -111.934,
    "speed_limit_mph": 35,
    "current_speed_mph": 35.0,
    "congestion_score": 0.0,
    "closed": false,
    "_simulated": false,
    "record_type": "roadsegment"
  },
  {
    "road_id": "tomtom_apache_blvd_rural_rd",
    "label": "Apache Blvd / Rural Rd",
    "lat": 33.415,
    "lng": -111.9,
    "speed_limit_mph": 45,
    "current_speed_mph": 37.0,
    "congestion_score": 0.18,
    "closed": false,
    "_simulated": false,
    "record_type": "roadsegment"
  },
  {
    "road_id": "tomtom_broadway_rd_mcclintock_dr",
    "label": "Broadway Rd / McClintock Dr",
    "lat": 33.405,
    "lng": -111.91,
    "speed_limit_mph": 57,
    "current_speed_mph": 57.0,
    "congestion_score": 0.0,
    "closed": false,
    "_simulated": false,
    "record_type": "roadsegment"
  },
  {
    "road_id": "tomtom_tempe_town_lake_mill_ave",
    "label": "Tempe Town Lake / Mill Ave",
    "lat": 33.428,
    "lng": -111.94,
    "speed_limit_mph": 17,
    "current_speed_mph": 17.0,
    "congestion_score": 0.0,
    "closed": false,
    "_simulated": false,
    "record_type": "roadsegment"
  },
  {
    "road_id": "tomtom_asu_campus_palm_walk",
    "label": "ASU Campus / Palm Walk",
    "lat": 33.422,
    "lng": -111.934,
    "speed_limit_mph": 37,
    "current_speed_mph": 30.0,
    "congestion_score": 0.19,
    "closed": false,
    "_simulated": false,
    "record_type": "roadsegment"
  },
  {
    "road_id": "tomtom_rural_rd_rio_salado",
    "label": "Rural Rd / Rio Salado",
    "lat": 33.43,
    "lng": -111.93,
    "speed_limit_mph": 36,
    "current_speed_mph": 36.0,
    "congestion_score": 0.0,
    "closed": false,
    "_simulated": false,
    "record_type": "roadsegment"
  },
  {
    "road_id": "tomtom_price_rd_us_60",
    "label": "Price Rd / US-60",
    "lat": 33.39,
    "lng": -111.98,
    "speed_limit_mph": 54,
    "current_speed_mph": 54.0,
    "congestion_score": 0.0,
    "closed": false,
    "_simulated": false,
    "record_type": "roadsegment"
  },
  {
    "road_id": "tomtom_elliot_rd_i_10_area",
    "label": "Elliot Rd / I-10 area",
    "lat": 33.37,
    "lng": -112.0,
    "speed_limit_mph": 69,
    "current_speed_mph": 69.0,
    "congestion_score": 0.0,
    "closed": false,
    "_simulated": false,
    "record_type": "roadsegment"
  },
  {
    "road_id": "tomtom_southern_ave_rural_rd",
    "label": "Southern Ave / Rural Rd",
    "lat": 33.38,
    "lng": -111.93,
    "speed_limit_mph": 43,
    "current_speed_mph": 43.0,
    "congestion_score": 0.0,
    "closed": false,
    "_simulated": false,
    "record_type": "roadsegment"
  },
  {
    "road_id": "tomtom_broadway_48th_st",
    "label": "Broadway / 48th St",
    "lat": 33.41,
    "lng": -111.97,
    "speed_limit_mph": 47,
    "current_speed_mph": 47.0,
    "congestion_score": 0.0,
    "closed": false,
    "_simulated": false,
    "record_type": "roadsegment"
  },
  {
    "road_id": "tomtom_baseline_rd_mcclintock",
    "label": "Baseline Rd / McClintock",
    "lat": 33.36,
    "lng": -111.91,
    "speed_limit_mph": 58,
    "current_speed_mph": 58.0,
    "congestion_score": 0.0,
    "closed": false,
    "_simulated": false,
    "record_type": "roadsegment"
  },
  {
    "road_id": "tomtom_guadalupe_rd_rural_rd",
    "label": "Guadalupe Rd / Rural Rd",
    "lat": 33.35,
    "lng": -111.93,
    "speed_limit_mph": 60,
    "current_speed_mph": 60.0,
    "congestion_score": 0.0,
    "closed": false,
    "_simulated": false,
    "record_type": "roadsegment"
  }
]